{"type":"FeatureCollection","features":[{"type":"Feature","properties":{"m2":"100","norooms":"80","link":"https://www.sahibinden.com/ilan/emlak-konut-kiralik-kg-den-bu-fiyata-boyle-bir-lokasyonda-temiz-2-plus1-593225497/detay","id":133,"title":"KG DEN BU FİYATA BÖYLE BİR LOKASYONDA TEMİZ 2+1","ammount":"1.500 TLEmlak Endeksi","kat":"9"},"geometry":{"type":"Point","coordinates":[29.086707673263504,40.971447885998046]}},{"type":"Feature","properties":{"m2":"90","norooms":"75","link":"https://www.sahibinden.com/ilan/emlak-konut-kiralik-city-den-senesenevler-de-bahce-kullanimli-metroya-yakin-2-plus1-firs-685378303/detay","id":135,"title":"CİTY'DEN ŞENESENEVLER'DE BAHÇE KULLANIMLI METROYA YAKIN 2+1 FIRS","ammount":"1.400 TLEmlak Endeksi","kat":"Bahçe Katı"},"geometry":{"type":"Point","coordinates":[29.099858249481144,40.96129189683183]}},{"type":"Feature","properties":{"m2":"85","norooms":"85","link":"https://www.sahibinden.com/ilan/emlak-konut-kiralik-sahibinden-kiralik-681728393/detay","id":138,"title":"Sahibinden kiralik","ammount":"1.250 TLEmlak Endeksi","kat":"Kot 2"},"geometry":{"type":"Point","coordinates":[29.1043858230114,40.95691441994694]}},{"type":"Feature","properties":{"m2":"95","norooms":"85","link":"https://www.sahibinden.com/ilan/emlak-konut-kiralik-dairemiz-opsiyonlu-689455769/detay","id":139,"title":"DAİREMIZ OPSIYONLU","ammount":"1.450 TLEmlak Endeksi","kat":"Yüksek Giriş"},"geometry":{"type":"Point","coordinates":[29.089141488075253,40.96030672568074]}},{"type":"Feature","properties":{"m2":"140","norooms":"100","link":"https://www.sahibinden.com/ilan/emlak-konut-kiralik-city-bostanci-gayrimenkul-metroya-2-dk-mesafede-3-plus130-m2-acillll-685094087/detay","id":140,"title":"CITY BOSTANCI GAYRİMENKUL METROYA 2 DK MESAFEDE 3+130 M2 ACİLLLL","ammount":"1.500 TLEmlak Endeksi","kat":"Yüksek Giriş"},"geometry":{"type":"Point","coordinates":[29.1043991621018,40.960908772398184]}},{"type":"Feature","properties":{"m2":"100","norooms":"85","link":"https://www.sahibinden.com/ilan/emlak-konut-kiralik-tek-yetkili-ozlem-emlak-tan-kiralik-daire-683528500/detay","id":142,"title":"TEK YETKILI ÖZLEM EMLAK TAN KİRALIK DAİRE","ammount":"1.350 TLEmlak Endeksi","kat":"Yüksek Giriş"},"geometry":{"type":"Point","coordinates":[29.09284092485905,40.96352593803768]}},{"type":"Feature","properties":{"m2":"130","norooms":"110","link":"https://www.sahibinden.com/ilan/emlak-konut-kiralik-batmaz.dan-kuyubasi.nda-kombili-masrafsiz-daire-685676207/detay","id":143,"title":"BATMAZ.DAN KUYUBAŞI.NDA KOMBİLİ MASRAFSIZ DAİRE","ammount":"1.500 TLEmlak Endeksi","kat":"2"},"geometry":{"type":"Point","coordinates":[29.04642446823118,40.9900389677809]}},{"type":"Feature","properties":{"m2":"80","norooms":"65","link":"https://www.sahibinden.com/ilan/emlak-konut-kiralik-minibuse-ve-metroya-yakin-kombili-2-plus1-yuksek-giris-1400-tl-671514677/detay","id":144,"title":"MİNİBÜSE VE METROYA YAKIN KOMBİLİ 2+1 YÜKSEK GİRİŞ 1400 TL","ammount":"1.400 TLEmlak Endeksi","kat":"Yüksek Giriş"},"geometry":{"type":"Point","coordinates":[29.0948081951326,40.965951133630334]}},{"type":"Feature","properties":{"m2":"85","norooms":"75","link":"https://www.sahibinden.com/ilan/emlak-konut-kiralik-kiziltoprak-intasta-bagdata-metrobuse-yakin-dekoratif-bahce-kati-689076616/detay","id":145,"title":"KIZILTOPRAK İNTAŞTA BAĞDATA METROBÜSE YAKIN DEKORATİF BAHÇE KATI","ammount":"1.400 TLEmlak Endeksi","kat":"Giriş Katı"},"geometry":{"type":"Point","coordinates":[29.03876818588867,40.98799026240234]}},{"type":"Feature","properties":{"m2":"100","norooms":"85","link":"https://www.sahibinden.com/ilan/emlak-konut-kiralik-turkland-dan-alternatifsiz-fiyatta-kiralik-daire-689365575/detay","id":146,"title":"TÜRKLAND'DAN ALTERNATIFSİZ FİYATTA KİRALIK DAİRE","ammount":"1.300 TLEmlak Endeksi","kat":"Yüksek Giriş"},"geometry":{"type":"Point","coordinates":[29.09203097138061,40.96407980257498]}},{"type":"Feature","properties":{"m2":"90","norooms":"70","link":"https://www.sahibinden.com/ilan/emlak-konut-kiralik-mert-emlak-tan-senesenevler-de-metroya-yakin-yesillikler-icinde-685110165/detay","id":148,"title":"MERT EMLAK TAN ŞENESENEVLER DE METROYA YAKIN YEŞİLLİKLER İÇİNDE","ammount":"1.450 TLEmlak Endeksi","kat":"Giriş Katı"},"geometry":{"type":"Point","coordinates":[29.098609066172685,40.96142828502795]}},{"type":"Feature","properties":{"m2":"70","norooms":"60","link":"https://www.sahibinden.com/ilan/emlak-konut-kiralik-rihtima-yakin-680918954/detay","id":150,"title":"RIHTIMA YAKIN","ammount":"1.500 TLEmlak Endeksi","kat":"1"},"geometry":{"type":"Point","coordinates":[29.02759552001953,40.99332031233288]}},{"type":"Feature","properties":{"m2":"100","norooms":"87","link":"https://www.sahibinden.com/ilan/emlak-konut-kiralik-atacan-dan-senesenevler-de-minibuse-yakin-yenilenmis-ferah-2-plus1-689662580/detay","id":151,"title":"ATACAN'DAN ŞENESENEVLER'DE MİNİBÜSE YAKIN YENİLENMİŞ FERAH 2+1..","ammount":"1.400 TLEmlak Endeksi","kat":"Yüksek Giriş"},"geometry":{"type":"Point","coordinates":[29.09337609786985,40.9617769930522]}},{"type":"Feature","properties":{"m2":"100","norooms":"85","link":"https://www.sahibinden.com/ilan/emlak-konut-kiralik-hasanpasa-okan-universitesi-karsisinda-bekara-aileye-2-plus1-daire-689648920/detay","id":152,"title":"HASANPAŞA OKAN ÜNİVERSİTESİ KARŞISINDA BEKARA AİLEYE 2+1 DAİRE","ammount":"1.500 TLEmlak Endeksi","kat":"3"},"geometry":{"type":"Point","coordinates":[29.044455918979565,40.99505468570744]}},{"type":"Feature","properties":{"m2":"68","norooms":"65","link":"https://www.sahibinden.com/ilan/emlak-konut-kiralik-kadikoyde-60m2-kombili-2-plus1-hol-temiz-metrobuse-iskeleye-evyap-690108427/detay","id":153,"title":"KADIKÖYDE 60M2 KOMBİLİ 2+1(HOL) TEMİZ METROBÜSE-İSKELEYE**EVYAP","ammount":"1.500 TLEmlak Endeksi","kat":"Yüksek Giriş"},"geometry":{"type":"Point","coordinates":[29.031309664726223,40.99142240536416]}},{"type":"Feature","properties":{"m2":"70","norooms":"65","link":"https://www.sahibinden.com/ilan/emlak-konut-kiralik-arslanoglundan-yeldegirmeninde-ici-yenilenmis-2-plus1-bahce-kati-639191898/detay","id":155,"title":"Arslanoğlundan Yeldeğirmeninde içi yenilenmiş 2+1 bahçe katı","ammount":"1.500 TLEmlak Endeksi","kat":"Bahçe Katı"},"geometry":{"type":"Point","coordinates":[29.02970465571559,40.994559426431344]}},{"type":"Feature","properties":{"m2":"90","norooms":"80","link":"https://www.sahibinden.com/ilan/emlak-konut-kiralik-city-bostanci-gayrimenkul-2-plus1-90-m2-kombili-acillllll-682815839/detay","id":158,"title":"CITY BOSTANCI GAYRİMENKUL 2+1 90 M2 KOMBİLİ ACİLLLLLL","ammount":"1.500 TLEmlak Endeksi","kat":"4"},"geometry":{"type":"Point","coordinates":[29.105541783142144,40.964166944139194]}},{"type":"Feature","properties":{"m2":"100","norooms":"87","link":"https://www.sahibinden.com/ilan/emlak-konut-kiralik-yenilenmis-mutfak%2Ckomple-boyali%2Cgenis-odalar%2Cmerkezi-konumda%2Cbos-685013043/detay","id":160,"title":"Yenilenmiş Mutfak,Komple Boyalı,Geniş Odalar,Merkezi konumda,BOŞ","ammount":"1.400 TLEmlak Endeksi","kat":"1"},"geometry":{"type":"Point","coordinates":[29.092257378387558,40.96149495829164]}},{"type":"Feature","properties":{"m2":"65","norooms":"60","link":"https://www.sahibinden.com/ilan/emlak-konut-kiralik-kadikoyde-65m2-kombili-2-plus1-hol-temiz-balkonlu-evyap-emlak-685795064/detay","id":164,"title":"kadıköyde 65M2 KOMBİLİ 2+1(HOL) TEMİZ BALKONLU** EVYAP EMLAK","ammount":"1.500 TLEmlak Endeksi","kat":"Yüksek Giriş"},"geometry":{"type":"Point","coordinates":[29.031239927291836,40.99151097946585]}},{"type":"Feature","properties":{"m2":"110","norooms":"90","link":"https://www.sahibinden.com/ilan/emlak-konut-kiralik-bostanci-kemal-akguder-caddesinde-3-plus1-daire-671570878/detay","id":166,"title":"BOSTANCI KEMAL AKGÜDER CADDESİNDE 3+1 DAİRE","ammount":"1.500 TLEmlak Endeksi","kat":"1"},"geometry":{"type":"Point","coordinates":[29.099012607105124,40.961602777599936]}},{"type":"Feature","properties":{"m2":"75","norooms":"70","link":"https://www.sahibinden.com/ilan/emlak-konut-kiralik-kadikoy-bahariye-yakini-piricavus-sokak-2-plus1-bodrum-kat-kombili-681174194/detay","id":167,"title":"KADIKÖY BAHARİYE YAKINI PİRİÇAVUŞ SOKAK 2+1 BODRUM KAT KOMBİLİ","ammount":"1.500 TLEmlak Endeksi","kat":"Bodrum Kat"},"geometry":{"type":"Point","coordinates":[29.027756117284298,40.9890654478901]}},{"type":"Feature","properties":{"m2":"80","norooms":"70","link":"https://www.sahibinden.com/ilan/emlak-konut-kiralik-kozyatagi-belediye-bloklarinda-piril-piril-2-plus1-kiralik-daire-680229754/detay","id":168,"title":"KOZYATAĞI BELEDİYE BLOKLARINDA PIRIL PIRIL 2+1 KİRALIK DAİRE","ammount":"1.450 TLEmlak Endeksi","kat":"Yüksek Giriş"},"geometry":{"type":"Point","coordinates":[29.09861176986692,40.96672450564938]}},{"type":"Feature","properties":{"m2":"100","norooms":"90","link":"https://www.sahibinden.com/ilan/emlak-konut-kiralik-atilla-emlak-tan-senesenevler-de-2-plus1-ferah-kiralik-daire-688387686/detay","id":171,"title":"ATİLLA EMLAK'TAN ŞENESENEVLER'DE 2+1 FERAH KİRALIK DAİRE","ammount":"1.500 TLEmlak Endeksi","kat":"2"},"geometry":{"type":"Point","coordinates":[29.092512426567055,40.96384249728832]}},{"type":"Feature","properties":{"m2":"100","norooms":"85","link":"https://www.sahibinden.com/ilan/emlak-konut-kiralik-ozlem-emlak-tan-kiralik-daire-689682161/detay","id":172,"title":"ÖZLEM EMLAK TAN KİRALIK DAİRE","ammount":"1.400 TLEmlak Endeksi","kat":"Yüksek Giriş"},"geometry":{"type":"Point","coordinates":[29.093123227357864,40.96310971525102]}},{"type":"Feature","properties":{"m2":"90","norooms":"80","link":"https://www.sahibinden.com/ilan/emlak-konut-kiralik-kozyatagi-belediye-bloklarinda-kiralik-daire-673955732/detay","id":174,"title":"KOZYATAĞI BELEDİYE BLOKLARINDA KİRALIK DAİRE","ammount":"1.500 TLEmlak Endeksi","kat":"4"},"geometry":{"type":"Point","coordinates":[29.10024315307617,40.96792890463867]}},{"type":"Feature","properties":{"m2":"80","norooms":"70","link":"https://www.sahibinden.com/ilan/emlak-konut-kiralik-atacan-dan-senesenevler-de-metroya-yakin-yenilenmis-ferah-2-plus1-689061375/detay","id":175,"title":"ATACAN'DAN ŞENESENEVLER'DE METROYA YAKIN YENİLENMİŞ FERAH 2+1","ammount":"1.450 TLEmlak Endeksi","kat":"Yüksek Giriş"},"geometry":{"type":"Point","coordinates":[29.09789293785093,40.96587979394618]}},{"type":"Feature","properties":{"m2":"110","norooms":"90","link":"https://www.sahibinden.com/ilan/emlak-konut-kiralik-gozde-emlak-tan-kiralik-y.giris-kati-daire-1350tl-669353279/detay","id":176,"title":"GÖZDE EMLAK'TAN KİRALIK Y.GİRİŞ KATI DAİRE 1350TL","ammount":"1.350 TLEmlak Endeksi","kat":"Yüksek Giriş"},"geometry":{"type":"Point","coordinates":[29.093018470627385,40.96340410082742]}},{"type":"Feature","properties":{"m2":"85","norooms":"70","link":"https://www.sahibinden.com/ilan/emlak-konut-kiralik-senesenevlerde-kayasultan-sokakta-tertemiz-presijli-bina-bakimli-622045138/detay","id":177,"title":"ŞENESENEVLERDE KAYASULTAN SOKAKTA TERTEMIZ PRESİJLİ BİNA BAKIMLI","ammount":"1.500 TLEmlak Endeksi","kat":"Yüksek Giriş"},"geometry":{"type":"Point","coordinates":[29.091649871759955,40.96606723325567]}},{"type":"Feature","properties":{"m2":"90","norooms":"80","link":"https://www.sahibinden.com/ilan/emlak-konut-kiralik-kozyatagi-bayar-caddesi-yakini-2-plus1-kiralikdaire-firsat-689791403/detay","id":178,"title":"KOZYATAĞI BAYAR CADDESİ YAKINI 2+1 KİRALIKDAİRE FIRSAT","ammount":"1.350 TLEmlak Endeksi","kat":"4"},"geometry":{"type":"Point","coordinates":[29.0985057502985,40.97004034335604]}},{"type":"Feature","properties":{"m2":"100","norooms":"80","link":"https://www.sahibinden.com/ilan/emlak-konut-kiralik-senesenevlerde-2-plus1temiz-yuksek-giris-687829090/detay","id":180,"title":"ŞENESENEVLERDE 2+1TEMIZ YÜKSEK GİRİŞ","ammount":"1.350 TLEmlak Endeksi","kat":"Yüksek Giriş"},"geometry":{"type":"Point","coordinates":[29.09253716468811,40.96229523764205]}},{"type":"Feature","properties":{"m2":"100","norooms":"90","link":"https://www.sahibinden.com/ilan/emlak-konut-kiralik-bagdat-caddesine-1.paralel-tek-yetkli-huzur-682389919/detay","id":182,"title":"BAĞDAT CADDESİNE 1.PARALEL TEK YETKLİ HUZUR!!!","ammount":"1.250 TLEmlak Endeksi","kat":"Yüksek Giriş"},"geometry":{"type":"Point","coordinates":[29.04140118509531,40.983324627943965]}},{"type":"Feature","properties":{"m2":"100","norooms":"85","link":"https://www.sahibinden.com/ilan/emlak-konut-kiralik-kayasultanda-merkezi-konumda-y.giris-kombili-kiralik-daire-2-plus1-685677380/detay","id":183,"title":"KAYASULTANDA MERKEZİ KONUMDA Y.GİRİŞ KOMBİLİ KİRALIK DAİRE 2+1","ammount":"1.500 TLEmlak Endeksi","kat":"Yüksek Giriş"},"geometry":{"type":"Point","coordinates":[29.091777501296974,40.966467037554054]}},{"type":"Feature","properties":{"m2":"80","norooms":"70","link":"https://www.sahibinden.com/ilan/emlak-konut-kiralik-kozyatagi-nda-metroya-ulasima-yakin-bakimli-2-plus1-687521497/detay","id":184,"title":"KOZYATAĞI'NDA METROYA , ULAŞIMA YAKIN , BAKIMLI 2+1","ammount":"1.450 TLEmlak Endeksi","kat":"Yüksek Giriş"},"geometry":{"type":"Point","coordinates":[29.099974332046486,40.96636703738384]}},{"type":"Feature","properties":{"m2":"95","norooms":"85","link":"https://www.sahibinden.com/ilan/emlak-konut-kiralik-enes-emlaktan-kent-plus-karsisinda-2-plus1-kombili-bos-daire-663727999/detay","id":185,"title":"ENES EMLAKTAN KENT PLUS KARŞISINDA 2+1 KOMBİLİ BOŞ DAİRE","ammount":"1.300 TLEmlak Endeksi","kat":"1"},"geometry":{"type":"Point","coordinates":[29.046264876794794,40.992357530866]}},{"type":"Feature","properties":{"m2":"95","norooms":"80","link":"https://www.sahibinden.com/ilan/emlak-konut-kiralik-kozyatagi-bayar-da-ulasima-metroya-yakin-95-m2-2-plus1-ferah-ara-kat-688337497/detay","id":186,"title":"KOZYATAĞI BAYAR'DA ULAŞIMA METROYA YAKIN 95 M2 2+1 FERAH ARA KAT","ammount":"1.350 TLEmlak Endeksi","kat":"4"},"geometry":{"type":"Point","coordinates":[29.09885853309629,40.970579571508374]}},{"type":"Feature","properties":{"m2":"150","norooms":"130","link":"https://www.sahibinden.com/ilan/emlak-konut-kiralik-minibus-yolu-uzeri-ogrenciye-uygun-3-plus2-genis-daire-677045055/detay","id":187,"title":"Minibüs yolu üzeri Öğrenciye uygun 3+2 geniş daire","ammount":"1.300 TLEmlak Endeksi","kat":"Kot 2"},"geometry":{"type":"Point","coordinates":[29.046817118442746,40.98666524431014]}},{"type":"Feature","properties":{"m2":"85","norooms":"80","link":"https://www.sahibinden.com/ilan/emlak-konut-kiralik-fikirtepe-kent-plus-yani-genc-binada-kiralik-663776667/detay","id":188,"title":"FİKİRTEPE KENT PLUS YANI GENÇ BİNADA KİRALİK","ammount":"1.400 TLEmlak Endeksi","kat":"1"},"geometry":{"type":"Point","coordinates":[29.046200662851337,40.99306775622579]}},{"type":"Feature","properties":{"m2":"130","norooms":"100","link":"https://www.sahibinden.com/ilan/emlak-konut-kiralik-kaleden-bostancida-metroya-yakin-3-plus1-arakat-on-cephe-daire-688352872/detay","id":189,"title":"KALEDEN BOSTANCIDA METROYA YAKIN 3+1 ARAKAT ÖN CEPHE DAİRE","ammount":"1.500 TLEmlak Endeksi","kat":"Yüksek Giriş"},"geometry":{"type":"Point","coordinates":[29.105026799011284,40.96154907698705]}},{"type":"Feature","properties":{"m2":"105","norooms":"88","link":"https://www.sahibinden.com/ilan/emlak-konut-kiralik-senesenevlerde-minibuse-yakin-sifir-mutfakli-tertemiz-688042375/detay","id":191,"title":"ŞENESENEVLERDE MINIBUSE YAKIN SIFIR MUTFAKLI TERTEMIZ","ammount":"1.500 TLEmlak Endeksi","kat":"1"},"geometry":{"type":"Point","coordinates":[29.092615467005317,40.96377254974442]}},{"type":"Feature","properties":{"m2":"75","norooms":"70","link":"https://www.sahibinden.com/ilan/emlak-konut-kiralik-bost-kopru-ayaginda-temiz-2-plus1-kombili-daire-657259322/detay","id":194,"title":"BOST. KÖPRÜ AYAĞINDA TEMİZ 2+1 KOMBİLİ DAİRE.","ammount":"1.300 TLEmlak Endeksi","kat":"1"},"geometry":{"type":"Point","coordinates":[29.105121212310223,40.9647823759604]}},{"type":"Feature","properties":{"m2":"120","norooms":"100","link":"https://www.sahibinden.com/ilan/emlak-konut-kiralik-hasanpasa-da-2-plus1-100-m2-sobali-merkezi-konumda-daire-686773239/detay","id":196,"title":"HASANPAŞA DA 2+1 100 M2 SOBALI MERKEZİ KONUMDA DAİRE","ammount":"1.350 TLEmlak Endeksi","kat":"2"},"geometry":{"type":"Point","coordinates":[29.040178433060646,40.994932295952374]}},{"type":"Feature","properties":{"m2":"80","norooms":"55","link":"https://www.sahibinden.com/ilan/emlak-konut-kiralik-queen-emlak-usta-1071-goztepe-projesi-1-plus1-80m2-kiralik-guncel-689049777/detay","id":198,"title":"QUEEN EMLAK**USTA 1071 GÖZTEPE PROJESİ**1+1 80M2 KİRALIK-GÜNCEL","ammount":"1.500 TLEmlak Endeksi","kat":"15"},"geometry":{"type":"Point","coordinates":[29.046459893530272,40.992837101416015]}},{"type":"Feature","properties":{"m2":"85","norooms":"75","link":"https://www.sahibinden.com/ilan/emlak-konut-kiralik-kiralik-daire-688681707/detay","id":199,"title":"kiralık daire","ammount":"1.500 TLEmlak Endeksi","kat":"6"},"geometry":{"type":"Point","coordinates":[29.09681461751461,40.96649689245126]}},{"type":"Feature","properties":{"m2":"85","norooms":"72","link":"https://www.sahibinden.com/ilan/emlak-konut-kiralik-kozyatagi-nda-2-plus1-payolcerli-cok-temiz-kiralik-daire-689514853/detay","id":202,"title":"KOZYATAĞI'NDA 2+1 PAYÖLÇERLİ ÇOK TEMİZ KİRALIK DAİRE","ammount":"1.450 TLEmlak Endeksi","kat":"Yüksek Giriş"},"geometry":{"type":"Point","coordinates":[29.098816551268097,40.96677587934059]}},{"type":"Feature","properties":{"m2":"105","norooms":"90","link":"https://www.sahibinden.com/ilan/emlak-konut-kiralik-sorf-ten-yetkiliyiz-bostanci-metrosuna-yakin-105m2-3-plus1-687486108/detay","id":204,"title":"SÖRF TEN YETKİLİYİZ BOSTANCI METROSUNA YAKIN 105M2 3+1","ammount":"1.500 TLEmlak Endeksi","kat":"Giriş Katı"},"geometry":{"type":"Point","coordinates":[29.103131657199697,40.95867346514255]}},{"type":"Feature","properties":{"m2":"110","norooms":"90","link":"https://www.sahibinden.com/ilan/emlak-konut-kiralik-nar-dan-bostanci-isiklara-yakin-2-kat-balkonlu-110m-2-plus1-689474984/detay","id":206,"title":"NAR'dan BOSTANCI IŞIKLARA YAKIN 2. KAT BALKONLU 110m 2+1","ammount":"1.450 TLEmlak Endeksi","kat":"2"},"geometry":{"type":"Point","coordinates":[29.1043592080905,40.9566630422581]}},{"type":"Feature","properties":{"m2":"75","norooms":"70","link":"https://www.sahibinden.com/ilan/emlak-konut-kiralik-kadikoy-rihtima-yakin-2-plus1-75m2-1.kat-isitma-yok-680838866/detay","id":210,"title":"KADIKÖY RIHTIMA YAKIN 2+1 75M2 1.KAT ISITMA YOK","ammount":"1.500 TLEmlak Endeksi","kat":"1"},"geometry":{"type":"Point","coordinates":[29.027557254314388,40.993265860954324]}},{"type":"Feature","properties":{"m2":"95","norooms":"85","link":"https://www.sahibinden.com/ilan/emlak-konut-kiralik-enes-emlaktan-fikirtepe-metrobuse-cok-yakin-2-plus1-kombili-daire-689625534/detay","id":211,"title":"ENES EMLAKTAN FİKİRTEPE METROBÜSE ÇOK YAKIN 2+1 KOMBİLİ DAİRE","ammount":"1.300 TLEmlak Endeksi","kat":"1"},"geometry":{"type":"Point","coordinates":[29.04612027473445,40.99248129182794]}},{"type":"Feature","properties":{"m2":"100","norooms":"90","link":"https://www.sahibinden.com/ilan/emlak-konut-kiralik-bagdat-caddesine-1.paralel-masrafli-ulasim-arayanlara-huzurdan-638041022/detay","id":212,"title":"BAĞDAT CADDESİNE 1.PARALEL MASRAFLI ULAŞIM ARAYANLARA HUZURDAN!!","ammount":"1.250 TLEmlak Endeksi","kat":"Giriş Katı"},"geometry":{"type":"Point","coordinates":[29.041221812367436,40.98353875029088]}},{"type":"Feature","properties":{"m2":"100","norooms":"90","link":"https://www.sahibinden.com/ilan/emlak-konut-kiralik-city-den-alanaldi-caddesinde-ful-esyali-2-plus1-kombili-acilllllll-684682336/detay","id":215,"title":"CİTY ' DEN ALANALDI CADDESİNDE FUL EŞYALI 2+1 KOMBİLİ ACİLLLLLLL","ammount":"1.400 TLEmlak Endeksi","kat":"2"},"geometry":{"type":"Point","coordinates":[29.10561688499456,40.96418770437275]}},{"type":"Feature","properties":{"m2":"125","norooms":"110","link":"https://www.sahibinden.com/ilan/emlak-konut-kiralik-bostanci-da-125m-3-plus1-metroya-yakin-yuksek-giris-daire-672271950/detay","id":218,"title":"BOSTANCI DA 125m 3+1 METROYA YAKIN YÜKSEK GİRİŞ DAİRE","ammount":"1.300 TLEmlak Endeksi","kat":"Yüksek Giriş"},"geometry":{"type":"Point","coordinates":[29.10058312118053,40.963298838703935]}},{"type":"Feature","properties":{"m2":"80","norooms":"70","link":"https://www.sahibinden.com/ilan/emlak-konut-kiralik-sahibinden-belediye-bloklari-kozyatagi-2-plus1-ici-sifir-yenilenmis-688528911/detay","id":219,"title":"Sahibinden Belediye blokları Kozyatağı 2+1 içi sıfır yenilenmiş","ammount":"1.450 TLEmlak Endeksi","kat":"Yüksek Giriş"},"geometry":{"type":"Point","coordinates":[29.098591916263103,40.96731486246769]}},{"type":"Feature","properties":{"m2":"90","norooms":"75","link":"https://www.sahibinden.com/ilan/emlak-konut-kiralik-espa-emlak-dan-90m2-kombili-2-plus1-kozzy-avm-civari-666645196/detay","id":220,"title":"ESPA EMLAK'DAN 90M2 KOMBİLİ 2+1 KOZZY AVM CİVARI","ammount":"1.500 TLEmlak Endeksi","kat":"1"},"geometry":{"type":"Point","coordinates":[29.09301996231079,40.96818497295566]}},{"type":"Feature","properties":{"m2":"115","norooms":"95","link":"https://www.sahibinden.com/ilan/emlak-konut-kiralik-kadikoy-fikirtepe-metrobuse-yakin-kombili-daire-680492379/detay","id":222,"title":"KADIKOY FIKIRTEPE METROBUSE YAKIN KOMBILI DAIRE","ammount":"1.450 TLEmlak Endeksi","kat":"2"},"geometry":{"type":"Point","coordinates":[29.0457933023572,40.9927575006056]}},{"type":"Feature","properties":{"m2":"100","norooms":"85","link":"https://www.sahibinden.com/ilan/emlak-konut-kiralik-hafta-sonu-firsati-yuksek-giris-daire-685389663/detay","id":225,"title":"HAFTA SONU FIRSATI YÜKSEK GİRİŞ DAİRE","ammount":"1.350 TLEmlak Endeksi","kat":"Yüksek Giriş"},"geometry":{"type":"Point","coordinates":[29.0926465370178,40.963689001774014]}},{"type":"Feature","properties":{"m2":"95","norooms":"80","link":"https://www.sahibinden.com/ilan/emlak-konut-kiralik-gozde-den-tek-yetkili-suadiye-de-kombili-bagdat-cad.yakin-1450tl-689415463/detay","id":226,"title":"GÖZDE'DEN TEK YETKİLİ SUADİYE'DE KOMBİLİ BAGDAT CAD.YAKIN 1450TL","ammount":"1.450 TLEmlak Endeksi","kat":"Yüksek Giriş"},"geometry":{"type":"Point","coordinates":[29.090871969238037,40.95959575302767]}},{"type":"Feature","properties":{"m2":"90","norooms":"85","link":"https://www.sahibinden.com/ilan/emlak-konut-kiralik-espa-emlak-dan-kombili-2-plus1-y.giris-90m2-boyasi-yapilmis-679295499/detay","id":229,"title":"ESPA EMLAK'DAN KOMBİLİ 2+1 Y.GİRİŞ 90M2 BOYASI YAPILMIŞ","ammount":"1.300 TLEmlak Endeksi","kat":"Yüksek Giriş"},"geometry":{"type":"Point","coordinates":[29.09381709664399,40.9691267053638]}},{"type":"Feature","properties":{"m2":"82","norooms":"70","link":"https://www.sahibinden.com/ilan/emlak-konut-kiralik-kozyataginda-central-hospital-yakini-2-plus1-cok-temiz-kiralik-daire-684670036/detay","id":230,"title":"KOZYATAĞINDA CENTRAL HOSPİTAL YAKINI 2+1 ÇOK TEMİZ KİRALIK DAİRE","ammount":"1.450 TLEmlak Endeksi","kat":"Yüksek Giriş"},"geometry":{"type":"Point","coordinates":[29.098783431243874,40.96669210067396]}},{"type":"Feature","properties":{"m2":"99","norooms":"89","link":"https://www.sahibinden.com/ilan/emlak-konut-kiralik-panaroyalden-uygun-3-plus1-daire-689682528/detay","id":231,"title":"PANAROYALDEN UYGUN 3+1 DAİRE","ammount":"1.500 TLEmlak Endeksi","kat":"3"},"geometry":{"type":"Point","coordinates":[29.043798627158594,40.99687757150569]}},{"type":"Feature","properties":{"m2":"85","norooms":"75","link":"https://www.sahibinden.com/ilan/emlak-konut-kiralik-arzudan-kiziltoprak-intas-metrobus-yakini-sik-bir-giris-kati-674275280/detay","id":232,"title":"ARZUDAN KIZILTOPRAK İNTAŞ METROBÜS YAKINI ŞIK BİR GİRİŞ KATI","ammount":"1.400 TLEmlak Endeksi","kat":"Bahçe Katı"},"geometry":{"type":"Point","coordinates":[29.039490469168527,40.98827757423378]}},{"type":"Feature","properties":{"m2":"90","norooms":"80","link":"https://www.sahibinden.com/ilan/emlak-konut-kiralik-suadiye-kiralik-oda-690155836/detay","id":234,"title":"Suadiye Kiralık Oda","ammount":"1.200 TLEmlak Endeksi","kat":"1"},"geometry":{"type":"Point","coordinates":[29.0836833242671,40.965465992068005]}},{"type":"Feature","properties":{"m2":"85","norooms":"80","link":"https://www.sahibinden.com/ilan/emlak-konut-kiralik-metrobuse-2dk-2-plus1-kombili-balkonlu-3.kat-ferah-firsat-daire-637819969/detay","id":235,"title":"METROBÜSE 2DK 2+1 KOMBİLİ BALKONLU 3.KAT FERAH FIRSAT DAİRE","ammount":"1.450 TLEmlak Endeksi","kat":"3"},"geometry":{"type":"Point","coordinates":[29.03658582735727,40.994877658477094]}},{"type":"Feature","properties":{"m2":"110","norooms":"90","link":"https://www.sahibinden.com/ilan/emlak-konut-kiralik-nar-dan-bostanci-metroya-minibus-yoluna-yakin-on-cephe-genis-2-plus1-651051225/detay","id":236,"title":"NAR'dan BOSTANCI METROYA MİNİBÜS YOLUNA YAKIN ÖN CEPHE GENİŞ 2+1","ammount":"1.500 TLEmlak Endeksi","kat":"4"},"geometry":{"type":"Point","coordinates":[29.1075432693151,40.95800013443207]}},{"type":"Feature","properties":{"m2":"90","norooms":"75","link":"https://www.sahibinden.com/ilan/emlak-konut-kiralik-bayar-caddesine-yakin-kombili-ara-kat-daire-682795899/detay","id":237,"title":"BAYAR CADDESİNE YAKIN KOMBİLİ ARA KAT DAİRE","ammount":"1.350 TLEmlak Endeksi","kat":"3"},"geometry":{"type":"Point","coordinates":[29.099423321775475,40.969091912914834]}},{"type":"Feature","properties":{"m2":"80","norooms":"75","link":"https://www.sahibinden.com/ilan/emlak-konut-kiralik-kadikoy-de-1.200-tl-ye-kiralik-659438887/detay","id":238,"title":"KADIKÖY'DE 1.200 TL YE KIRALIK","ammount":"1.100 TLEmlak Endeksi","kat":"5"},"geometry":{"type":"Point","coordinates":[29.0411263,40.9959703]}},{"type":"Feature","properties":{"m2":"65","norooms":"60","link":"https://www.sahibinden.com/ilan/emlak-konut-kiralik-kadikoyde-marmaray-metrobuse-yakin-1-plus1-plus1-dogalgazli-60m2-evyap-686739524/detay","id":239,"title":"KADIKÖYDE MARMARAY-METROBÜSE YAKIN 1+1+1 DOĞALGAZLI 60M2 **EVYAP","ammount":"1.475 TLEmlak Endeksi","kat":"Yüksek Giriş"},"geometry":{"type":"Point","coordinates":[29.03259712505337,40.99479927204234]}},{"type":"Feature","properties":{"m2":"88","norooms":"73","link":"https://www.sahibinden.com/ilan/emlak-konut-kiralik-kozyataginda-2-plus1-kiralik-2.kat-on-cephe-1300-tl-687538243/detay","id":240,"title":"KOZYATAĞINDA 2+1 KİRALIK 2.KAT ÖN CEPHE 1300 TL.","ammount":"1.300 TLEmlak Endeksi","kat":"2"},"geometry":{"type":"Point","coordinates":[29.093300996017433,40.96671817655388]}},{"type":"Feature","properties":{"m2":"80","norooms":"65","link":"https://www.sahibinden.com/ilan/emlak-konut-kiralik-hilmipasa-cad-kiralik-2-plus1-679309802/detay","id":241,"title":"Hilmipaşa cad kiralık 2+1","ammount":"1.500 TLEmlak Endeksi","kat":"3"},"geometry":{"type":"Point","coordinates":[29.094692990183834,40.972804189031805]}},{"type":"Feature","properties":{"m2":"60","norooms":"55","link":"https://www.sahibinden.com/ilan/emlak-konut-kiralik-altiyol%2Cbahariye-de%2C60-m2%2Cbekara%2C5.kat%2C2-plus1%2Cdaire-662849742/detay","id":243,"title":"ALTIYOL,BAHARİYE'DE,60 m2,BEKARA,5.KAT,2+1,DAİRE","ammount":"1.300 TLEmlak Endeksi","kat":"5"},"geometry":{"type":"Point","coordinates":[29.028260412025475,40.99004700791654]}},{"type":"Feature","properties":{"m2":"100","norooms":"85","link":"https://www.sahibinden.com/ilan/emlak-konut-kiralik-omeroglu-emlak-bostanci-sahilde-mustakil-girisli-bakimli-688673279/detay","id":245,"title":"ÖMEROĞLU EMLAK BOSTANCI SAHİLDE MÜSTAKİL GİRİŞLİ BAKIMLI","ammount":"1.350 TLEmlak Endeksi","kat":"Giriş Katı"},"geometry":{"type":"Point","coordinates":[29.098282652598755,40.95445124844576]}},{"type":"Feature","properties":{"m2":"120","norooms":"90","link":"https://www.sahibinden.com/ilan/emlak-konut-kiralik-oks-dan-kozyataginda-2-plus1-yuksek-giris-bakimli-merkezi-90m2-686793360/detay","id":246,"title":"OKS'DAN KOZYATAĞINDA 2+1 YÜKSEK GİRİŞ BAKIMLI MERKEZİ 90M2","ammount":"1.350 TLEmlak Endeksi","kat":"Yüksek Giriş"},"geometry":{"type":"Point","coordinates":[29.090740550809528,40.96317741848656]}},{"type":"Feature","properties":{"m2":"140","norooms":"115","link":"https://www.sahibinden.com/ilan/emlak-konut-kiralik-avantaj-dan-bostanci-da-kosiflerin-yaninda-site-de-kombili-683230627/detay","id":247,"title":"AVANTAJ'DAN BOSTANCI'DA KOSİFLERİN YANINDA SİTE DE KOMBİLİ","ammount":"1.400 TLEmlak Endeksi","kat":"16"},"geometry":{"type":"Point","coordinates":[29.10835273818975,40.96140881308887]}},{"type":"Feature","properties":{"m2":"90","norooms":"75","link":"https://www.sahibinden.com/ilan/emlak-konut-kiralik-sener-den-senesenevlerde-metroya-yakin-2-plus1-kiralik-daire-686356569/detay","id":251,"title":"ŞENER'DEN ŞENESENEVLERDE METROYA YAKIN 2+1 KİRALIK DAİRE!!!","ammount":"1.400 TLEmlak Endeksi","kat":"Yüksek Giriş"},"geometry":{"type":"Point","coordinates":[29.100284653472954,40.96065105871434]}},{"type":"Feature","properties":{"m2":"90","norooms":"80","link":"https://www.sahibinden.com/ilan/emlak-konut-kiralik-bostanci-ali-nihat-tarlan-caddesi-2-plus1-bahce-kati-kiralik-daire-680634240/detay","id":255,"title":"BOSTANCI ALİ NİHAT TARLAN CADDESİ 2+1 BAHÇE KATI KİRALIK DAİRE","ammount":"1.100 TLEmlak Endeksi","kat":"Bahçe Katı"},"geometry":{"type":"Point","coordinates":[29.101563177460207,40.96019313795335]}},{"type":"Feature","properties":{"m2":"100","norooms":"90","link":"https://www.sahibinden.com/ilan/emlak-konut-kiralik-gozde-den-senesenevler-de-2-plus1-kiralik-daire-1350tl-675142643/detay","id":257,"title":"GÖZDE'DEN ŞENESENEVLER'DE 2+1 KİRALIK DAİRE 1350TL","ammount":"1.350 TLEmlak Endeksi","kat":"Yüksek Giriş"},"geometry":{"type":"Point","coordinates":[29.09250492999945,40.963865565318216]}},{"type":"Feature","properties":{"m2":"75","norooms":"55","link":"https://www.sahibinden.com/ilan/emlak-konut-kiralik-bagdat-cad-kiziltoprak-mc-donalds-arasi-kiralik-670731493/detay","id":260,"title":"BAĞDAT CAD KIZILTOPRAK MC DONALDS ARASI KİRALIK","ammount":"1.500 TLEmlak Endeksi","kat":"1"},"geometry":{"type":"Point","coordinates":[29.043042026460174,40.98398141946335]}},{"type":"Feature","properties":{"m2":"130","norooms":"100","link":"https://www.sahibinden.com/ilan/emlak-konut-kiralik-avantaj-dan-bostanci-da-metro-sahil-arasinda-3-plus1-130m-firsat-686425944/detay","id":261,"title":"AVANTAJ'DAN BOSTANCI'DA METRO-SAHİL ARASINDA 3+1 130M FIRSAT !!!","ammount":"1.500 TLEmlak Endeksi","kat":"Yüksek Giriş"},"geometry":{"type":"Point","coordinates":[29.10524230637884,40.9623922559191]}}]}