{"type":"FeatureCollection","features":[{"type":"Feature","properties":{"m2":"75","norooms":"2+1","link":"https://www.sahibinden.com/ilan/emlak-konut-kiralik-sultantepe-de-2-plus1-ferah-temiz-ara-kat-75-m2-merkeze-yakin-daire-435744466/detay/","title":"SULTANTEPE'DE 2+1 FERAH TEMİZ ARA KAT 75 M2 MERKEZE YAKİN DAİRE","ammount":"1.350 TL","kat":"5"},"geometry":{"type":"Point","coordinates":[29.018079042434692,41.02557384337262]}},{"type":"Feature","properties":{"m2":"75","norooms":"2+1","link":"https://www.sahibinden.com/ilan/emlak-konut-kiralik-bahariyede-kiralik-bahce-kati-daire-429676338/detay/","title":"BAHARİYEDE KİRALIK BAHÇE KATI DAİRE","ammount":"1.350 TL","kat":"4"},"geometry":{"type":"Point","coordinates":[29.027269363141386,40.98876170307832]}},{"type":"Feature","properties":{"m2":"80","norooms":"2+1","link":"https://www.sahibinden.com/ilan/emlak-konut-kiralik-avantaj-1.400tl-sok-sok-sok-bostanci-altintpe-sahil-2-plus1-kombili-436178330/detay/","title":"AVANTAJ 1.400TL ŞOK ŞOK ŞOK BOSTANCI ALTINTPE SAHİL 2+1 KOMBILI","ammount":"1.400 TL","kat":"5"},"geometry":{"type":"Point","coordinates":[29.099736213684082,40.955490399684656]}},{"type":"Feature","properties":{"m2":"65","norooms":"2+1","link":"https://www.sahibinden.com/ilan/emlak-konut-kiralik-uskudar-sultantepede-2-1-1-kat-kiralik-daire-434671675/detay/","title":"ÜSKÜDAR SULTANTEPEDE 2-1 1 KAT KİRALIK DAİRE","ammount":"1.400 TL","kat":"4"},"geometry":{"type":"Point","coordinates":[29.018433094024658,41.02528539226012]}},{"type":"Feature","properties":{"m2":"75","norooms":"2+1","link":"https://www.sahibinden.com/ilan/emlak-konut-kiralik-acibadem-cadde-uzerinde-kiralik-bahce-kati-daire-435648332/detay/","title":"ACIBADEM CADDE ÜZERİNDE KİRALIK BAHÇE KATI DAİRE","ammount":"1.400 TL","kat":"4"},"geometry":{"type":"Point","coordinates":[29.03833508491516,40.99877065744935]}},{"type":"Feature","properties":{"m2":"75","norooms":"2+1","link":"https://www.sahibinden.com/ilan/emlak-konut-kiralik-sultan-tepede-kiralik-daire-367995982/detay/","title":"SULTAN TEPEDE KİRALİK DAİRE","ammount":"1.200 TL","kat":"4"},"geometry":{"type":"Point","coordinates":[29.018910191953186,41.02566682318048]}},{"type":"Feature","properties":{"m2":"120","norooms":"3+1","link":"https://www.sahibinden.com/ilan/emlak-konut-kiralik-uskudar-parlak-emlak-tan-merkez-de-3-plus1-120-m2-temiz-bakimli-415097037/detay/","title":"ÜSKÜDAR PARLAK EMLAK'TAN MERKEZ*DE 3+1 120 m2* TEMİZ BAKIMLI^^*","ammount":"1.400 TL","kat":"4"},"geometry":{"type":"Point","coordinates":[29.022589027887307,41.02691238834679]}},{"type":"Feature","properties":{"m2":"60","norooms":"1+1","link":"https://www.sahibinden.com/ilan/emlak-konut-kiralik-tam-merkez-de-marmaraya-iskeleye-max.3-dak-mesafede-1-plus1-esyali-442317527/detay/","title":"TAM MERKEZ'DE MARMARAYA İSKELEYE MAX.3 DAK MESAFEDE 1+1 EŞYALI","ammount":"1.300 TL","kat":"4"},"geometry":{"type":"Point","coordinates":[29.012341797351837,41.02409378580959]}},{"type":"Feature","properties":{"m2":"60","norooms":"1+1","link":"https://www.sahibinden.com/ilan/emlak-konut-kiralik-metro-ya-minubuse-5-dakikalik-mesafede-1-plus1-kombili-daire-426407540/detay/","title":"METRO'YA MİNÜBÜSE 5 DAKİKALIK MESAFEDE 1+1 KOMBİLİ DAİRE","ammount":"1.250 TL","kat":"4"},"geometry":{"type":"Point","coordinates":[29.105658531188965,40.957759094549104]}},{"type":"Feature","properties":{"m2":"85","norooms":"2+1","link":"https://www.sahibinden.com/ilan/emlak-konut-kiralik-2-plus1-merkezde1200-pazarliksiz-407106600/detay/","title":"2+1 merkezde1200 pazarliksiz","ammount":"1.200 TL","kat":"3"},"geometry":{"type":"Point","coordinates":[29.02247417718172,41.026072533750536]}},{"type":"Feature","properties":{"m2":"65","norooms":"1+1","link":"https://www.sahibinden.com/ilan/emlak-konut-kiralik-merkezde-temiz-1-plus1-442383081/detay/","title":"MERKEZDE - TEMİZ 1+1","ammount":"1.100 TL","kat":"2"},"geometry":{"type":"Point","coordinates":[29.01171952486038,41.02334506854035]}},{"type":"Feature","properties":{"m2":"60","norooms":"1+1","link":"https://www.sahibinden.com/ilan/emlak-konut-kiralik-ms-emlaktan-uskudar-dogancilarda-ogrenciye-bekara-uygun-1-plus1-432742798/detay/","title":"MS EMLAKTAN ÜSKÜDAR DOĞANCILARDA ÖĞRENCİYE BEKARA UYGUN 1+1","ammount":"1.350 TL","kat":"4"},"geometry":{"type":"Point","coordinates":[29.015828669071198,41.021121947807735]}},{"type":"Feature","properties":{"m2":"70","norooms":"2+1","link":"https://www.sahibinden.com/ilan/emlak-konut-kiralik-fistik-agacinda-kiralik-bahce-kati-408432306/detay/","title":"Fistik agacinda kiralık bahçe kati","ammount":"1.000 TL","kat":"6"},"geometry":{"type":"Point","coordinates":[29.027927108108997,41.02807044478833]}},{"type":"Feature","properties":{"m2":"75","norooms":"2+1","link":"https://www.sahibinden.com/ilan/emlak-konut-kiralik-atamert-emlaktan-senesenevlerde-2-1-75m2-temiz-daire-435703365/detay/","title":"ATAMERT EMLAKTAN ŞENESENEVLERDE 2'1 75M2 TEMİZ DAİRE","ammount":"1.400 TL","kat":"7"},"geometry":{"type":"Point","coordinates":[29.095873832702637,40.96640271669863]}},{"type":"Feature","properties":{"m2":"90","norooms":"2+1","link":"https://www.sahibinden.com/ilan/emlak-konut-kiralik-avantaj-1.350tl-bostanci-altintepe-2-plus1-yuksek-giris-kat-daire-444515293/detay/","title":"AVANTAJ 1.350TL BOSTANCI ALTINTEPE 2+1 YUKSEK GIRIS KAT DAİRE","ammount":"1.350 TL","kat":"5"},"geometry":{"type":"Point","coordinates":[29.103598594665527,40.95672198657145]}}]}